{"businesses": [{"id": "XAH2HpuUUtu7CUO26pbs4w", "alias": "saku-vancouver-3", "name": "Saku", "image_url": "https://s3-media2.fl.yelpcdn.com/bphoto/_TjVeAVRczn0yITxvBqrCA/o.jpg", "is_closed": false, "url": "https://www.yelp.com/biz/saku-vancouver-3?adjust_creative=1ZZ0Ns_B8DEDC0FtVqeJeQ&utm_campaign=yelp_api_v3&utm_medium=api_v3_business_search&utm_source=1ZZ0Ns_B8DEDC0FtVqeJeQ", "review_count": 132, "categories": [{"alias": "japanese", "title": "Japanese"}], "rating": 4.5, "coordinates": {"latitude": 49.2631251, "longitude": -123.1166034}, "transactions": [], "price": "$$", "location": {"address1": "548 W Broadway", "address2": "", "address3": null, "city": "Vancouver", "zip_code": "V5Z 1E9", "country": "CA", "state": "BC", "display_address": ["548 W Broadway", "Vancouver, BC V5Z 1E9", "Canada"]}, "phone": "", "display_phone": "", "distance": 35.89324038861023}, {"id": "NdEPf2Ls5Ql3_nkwjqKvXA", "alias": "the-flying-pig-yaletown-vancouver", "name": "The Flying Pig - Yaletown", "image_url": "https://s3-media1.fl.yelpcdn.com/bphoto/A12vKckXPkrVAF9mXs9AbA/o.jpg", "is_closed": false, "url": "https://www.yelp.com/biz/the-flying-pig-yaletown-vancouver?adjust_creative=1ZZ0Ns_B8DEDC0FtVqeJeQ&utm_campaign=yelp_api_v3&utm_medium=api_v3_business_search&utm_source=1ZZ0Ns_B8DEDC0FtVqeJeQ", "review_count": 1088, "categories": [{"alias": "newcanadian", "title": "Canadian (New)"}, {"alias": "seafood", "title": "Seafood"}], "rating": 4.0, "coordinates": {"latitude": 49.27501, "longitude": -123.122}, "transactions": [], "price": "$$", "location": {"address1": "1168 Hamilton Street", "address2": "Unit 104", "address3": "", "city": "Vancouver", "zip_code": "V6B 2S2", "country": "CA", "state": "BC", "display_address": ["1168 Hamilton Street", "Unit 104", "Vancouver, BC V6B 2S2", "Canada"]}, "phone": "+16045681344", "display_phone": "+1 604-568-1344", "distance": 1382.5087537572042}, {"id": "gt1BSfVFvzI-qHdJ3LUZug", "alias": "blue-water-cafe-vancouver", "name": "Blue Water Cafe", "image_url": "https://s3-media3.fl.yelpcdn.com/bphoto/7lYdbVcBU70yeaqWpFx_Vg/o.jpg", "is_closed": false, "url": "https://www.yelp.com/biz/blue-water-cafe-vancouver?adjust_creative=1ZZ0Ns_B8DEDC0FtVqeJeQ&utm_campaign=yelp_api_v3&utm_medium=api_v3_business_search&utm_source=1ZZ0Ns_B8DEDC0FtVqeJeQ", "review_count": 912, "categories": [{"alias": "seafood", "title": "Seafood"}], "rating": 4.5, "coordinates": {"latitude": 49.2761945, "longitude": -123.1209935}, "transactions": [], "price": "$$$", "location": {"address1": "1095 Hamilton St", "address2": "", "address3": "", "city": "Vancouver", "zip_code": "V6B 5T4", "country": "CA", "state": "BC", "display_address": ["1095 Hamilton St", "Vancouver, BC V6B 5T4", "Canada"]}, "phone": "+16046888078", "display_phone": "+1 604-688-8078", "distance": 1482.328162797273}, {"id": "6iOAgzJ0DRZNSKA3FSrrOg", "alias": "la-taqueria-pinche-taco-shop-vancouver", "name": "La Taqueria Pinche Taco Shop", "image_url": "https://s3-media3.fl.yelpcdn.com/bphoto/MIw2bLyxQ0cYojQu0uWALw/o.jpg", "is_closed": false, "url": "https://www.yelp.com/biz/la-taqueria-pinche-taco-shop-vancouver?adjust_creative=1ZZ0Ns_B8DEDC0FtVqeJeQ&utm_campaign=yelp_api_v3&utm_medium=api_v3_business_search&utm_source=1ZZ0Ns_B8DEDC0FtVqeJeQ", "review_count": 619, "categories": [{"alias": "mexican", "title": "Mexican"}], "rating": 4.0, "coordinates": {"latitude": 49.263559, "longitude": -123.112736}, "transactions": [], "price": "$$", "location": {"address1": "2450 Yukon Street", "address2": "", "address3": "", "city": "Vancouver", "zip_code": "V5Z 3V6", "country": "CA", "state": "BC", "display_address": ["2450 Yukon Street", "Vancouver, BC V5Z 3V6", "Canada"]}, "phone": "+16045582549", "display_phone": "+1 604-558-2549", "distance": 255.18136290582157}, {"id": "5-adl2zPRMgammVOoz5WEg", "alias": "published-vancouver", "name": "Published", "image_url": "https://s3-media4.fl.yelpcdn.com/bphoto/wSZW1kOgImxxhGhIza6O4g/o.jpg", "is_closed": false, "url": "https://www.yelp.com/biz/published-vancouver?adjust_creative=1ZZ0Ns_B8DEDC0FtVqeJeQ&utm_campaign=yelp_api_v3&utm_medium=api_v3_business_search&utm_source=1ZZ0Ns_B8DEDC0FtVqeJeQ", "review_count": 33, "categories": [{"alias": "tapasmallplates", "title": "Tapas/Small Plates"}], "rating": 4.5, "coordinates": {"latitude": 49.252851, "longitude": -123.101296}, "transactions": [], "location": {"address1": "3593 Main Street", "address2": "", "address3": null, "city": "Vancouver", "zip_code": "V5V 3N4", "country": "CA", "state": "BC", "display_address": ["3593 Main Street", "Vancouver, BC V5V 3N4", "Canada"]}, "phone": "+16044234840", "display_phone": "+1 604-423-4840", "distance": 1586.90765340068}, {"id": "QmkGDL-8zexdKV3Xcn8ZYg", "alias": "oeb-breakfast-co-vancouver-2", "name": "OEB Breakfast Co.", "image_url": "https://s3-media1.fl.yelpcdn.com/bphoto/B-MxxZfzVpBu8XGEQBGxDg/o.jpg", "is_closed": false, "url": "https://www.yelp.com/biz/oeb-breakfast-co-vancouver-2?adjust_creative=1ZZ0Ns_B8DEDC0FtVqeJeQ&utm_campaign=yelp_api_v3&utm_medium=api_v3_business_search&utm_source=1ZZ0Ns_B8DEDC0FtVqeJeQ", "review_count": 389, "categories": [{"alias": "breakfast_brunch", "title": "Breakfast & Brunch"}], "rating": 4.5, "coordinates": {"latitude": 49.2734341, "longitude": -123.1192724}, "transactions": [], "price": "$$", "location": {"address1": "1137 Marinaside Crescent", "address2": null, "address3": "", "city": "Vancouver", "zip_code": "V6Z 2Y3", "country": "CA", "state": "BC", "display_address": ["1137 Marinaside Crescent", "Vancouver, BC V6Z 2Y3", "Canada"]}, "phone": "+16044233447", "display_phone": "+1 604-423-3447", "distance": 1153.068003234908}, {"id": "NBm-y1Jv-sV5TeDmOWDP_A", "alias": "kyu-grill-vancouver", "name": "Kyu Grill", "image_url": "https://s3-media4.fl.yelpcdn.com/bphoto/uXXbTxqXjJvFbRRkS5x7dw/o.jpg", "is_closed": false, "url": "https://www.yelp.com/biz/kyu-grill-vancouver?adjust_creative=1ZZ0Ns_B8DEDC0FtVqeJeQ&utm_campaign=yelp_api_v3&utm_medium=api_v3_business_search&utm_source=1ZZ0Ns_B8DEDC0FtVqeJeQ", "review_count": 4, "categories": [{"alias": "foodtrucks", "title": "Food Trucks"}, {"alias": "japanese", "title": "Japanese"}, {"alias": "asianfusion", "title": "Asian Fusion"}], "rating": 4.0, "coordinates": {"latitude": 49.2603797912598, "longitude": -123.113357543945}, "transactions": [], "location": {"address1": "", "address2": "", "address3": null, "city": "Vancouver", "zip_code": "V5H 3Z7", "country": "CA", "state": "BC", "display_address": ["Vancouver, BC V5H 3Z7", "Canada"]}, "phone": "+12046158828", "display_phone": "+1 204-615-8828", "distance": 383.65571938518326}, {"id": "OHMv-_cc0kmRCWV3kM44Bg", "alias": "kosoo-vancouver", "name": "Kosoo", "image_url": "https://s3-media2.fl.yelpcdn.com/bphoto/-0MadSFxAxv1KTg3hgPh1w/o.jpg", "is_closed": false, "url": "https://www.yelp.com/biz/kosoo-vancouver?adjust_creative=1ZZ0Ns_B8DEDC0FtVqeJeQ&utm_campaign=yelp_api_v3&utm_medium=api_v3_business_search&utm_source=1ZZ0Ns_B8DEDC0FtVqeJeQ", "review_count": 13, "categories": [{"alias": "korean", "title": "Korean"}, {"alias": "bbq", "title": "Barbeque"}, {"alias": "soulfood", "title": "Soul Food"}], "rating": 4.5, "coordinates": {"latitude": 49.28494, "longitude": -123.12592}, "transactions": [], "location": {"address1": "1128 Robson Street", "address2": "", "address3": null, "city": "Vancouver", "zip_code": "V6E 1B2", "country": "CA", "state": "BC", "display_address": ["1128 Robson Street", "Vancouver, BC V6E 1B2", "Canada"]}, "phone": "+16044288414", "display_phone": "+1 604-428-8414", "distance": 2515.2257748335624}, {"id": "rVuC98hyTNLaxtr5Y8rH9A", "alias": "elisa-vancouver-2", "name": "Elisa", "image_url": "https://s3-media3.fl.yelpcdn.com/bphoto/hmW35TpgQ7XeIwvch8o_-A/o.jpg", "is_closed": false, "url": "https://www.yelp.com/biz/elisa-vancouver-2?adjust_creative=1ZZ0Ns_B8DEDC0FtVqeJeQ&utm_campaign=yelp_api_v3&utm_medium=api_v3_business_search&utm_source=1ZZ0Ns_B8DEDC0FtVqeJeQ", "review_count": 124, "categories": [{"alias": "steak", "title": "Steakhouses"}], "rating": 4.5, "coordinates": {"latitude": 49.2759562, "longitude": -123.1213608}, "transactions": [], "price": "$$$", "location": {"address1": "1109 Hamilton Street", "address2": null, "address3": "", "city": "Vancouver", "zip_code": "V6B 5P6", "country": "CA", "state": "BC", "display_address": ["1109 Hamilton Street", "Vancouver, BC V6B 5P6", "Canada"]}, "phone": "+16043625443", "display_phone": "+1 604-362-5443", "distance": 1462.0085749676196}, {"id": "VPqWLp9kMiZEbctCebIZUA", "alias": "medina-cafe-vancouver", "name": "Medina Cafe", "image_url": "https://s3-media1.fl.yelpcdn.com/bphoto/9avnAPBgEVN9WJFu1ttg9w/o.jpg", "is_closed": false, "url": "https://www.yelp.com/biz/medina-cafe-vancouver?adjust_creative=1ZZ0Ns_B8DEDC0FtVqeJeQ&utm_campaign=yelp_api_v3&utm_medium=api_v3_business_search&utm_source=1ZZ0Ns_B8DEDC0FtVqeJeQ", "review_count": 2307, "categories": [{"alias": "breakfast_brunch", "title": "Breakfast & Brunch"}, {"alias": "mideastern", "title": "Middle Eastern"}, {"alias": "wine_bars", "title": "Wine Bars"}], "rating": 4.0, "coordinates": {"latitude": 49.2804429972571, "longitude": -123.117036269849}, "transactions": [], "price": "$$", "location": {"address1": "780 Richards Street", "address2": "", "address3": "", "city": "Vancouver", "zip_code": "V6B 3A4", "country": "CA", "state": "BC", "display_address": ["780 Richards Street", "Vancouver, BC V6B 3A4", "Canada"]}, "phone": "+16048793114", "display_phone": "+1 604-879-3114", "distance": 1909.5584355163853}, {"id": "LjdbthVdtLYKSi7iVAFl0g", "alias": "jam-cafe-on-beatty-vancouver", "name": "Jam Cafe on Beatty", "image_url": "https://s3-media3.fl.yelpcdn.com/bphoto/_NarCXZg1AFlR41cMrXwkQ/o.jpg", "is_closed": false, "url": "https://www.yelp.com/biz/jam-cafe-on-beatty-vancouver?adjust_creative=1ZZ0Ns_B8DEDC0FtVqeJeQ&utm_campaign=yelp_api_v3&utm_medium=api_v3_business_search&utm_source=1ZZ0Ns_B8DEDC0FtVqeJeQ", "review_count": 1104, "categories": [{"alias": "breakfast_brunch", "title": "Breakfast & Brunch"}], "rating": 4.5, "coordinates": {"latitude": 49.2802586, "longitude": -123.1096376}, "transactions": [], "price": "$$", "location": {"address1": "556 Beatty Street", "address2": "", "address3": "", "city": "Vancouver", "zip_code": "V6B 2L3", "country": "CA", "state": "BC", "display_address": ["556 Beatty Street", "Vancouver, BC V6B 2L3", "Canada"]}, "phone": "+17783791992", "display_phone": "+1 778-379-1992", "distance": 1946.7376761407324}, {"id": "4118Aq9LbkvUr4s719uUkA", "alias": "uma-sushi-vancouver", "name": "Uma Sushi", "image_url": "https://s3-media1.fl.yelpcdn.com/bphoto/RmJMalmNry03SAg1Ma3cLg/o.jpg", "is_closed": false, "url": "https://www.yelp.com/biz/uma-sushi-vancouver?adjust_creative=1ZZ0Ns_B8DEDC0FtVqeJeQ&utm_campaign=yelp_api_v3&utm_medium=api_v3_business_search&utm_source=1ZZ0Ns_B8DEDC0FtVqeJeQ", "review_count": 94, "categories": [{"alias": "japanese", "title": "Japanese"}, {"alias": "sushi", "title": "Sushi Bars"}], "rating": 4.0, "coordinates": {"latitude": 49.2638048, "longitude": -123.1137294}, "transactions": [], "price": "$$", "location": {"address1": "450 W 8th Avenue", "address2": "", "address3": null, "city": "Vancouver", "zip_code": "V5Y 1N9", "country": "CA", "state": "BC", "display_address": ["450 W 8th Avenue", "Vancouver, BC V5Y 1N9", "Canada"]}, "phone": "+16044288588", "display_phone": "+1 604-428-8588", "distance": 187.6176106099299}, {"id": "9Waotz-_G9woVPWZTmZcwA", "alias": "lunch-lady-vancouver", "name": "Lunch Lady", "image_url": "https://s3-media4.fl.yelpcdn.com/bphoto/WbwSTYhYLWsewhqArP0y6g/o.jpg", "is_closed": false, "url": "https://www.yelp.com/biz/lunch-lady-vancouver?adjust_creative=1ZZ0Ns_B8DEDC0FtVqeJeQ&utm_campaign=yelp_api_v3&utm_medium=api_v3_business_search&utm_source=1ZZ0Ns_B8DEDC0FtVqeJeQ", "review_count": 80, "categories": [{"alias": "vietnamese", "title": "Vietnamese"}], "rating": 4.0, "coordinates": {"latitude": 49.27497, "longitude": -123.06915}, "transactions": [], "location": {"address1": "1046 Commercial Drive", "address2": "", "address3": null, "city": "Vancouver", "zip_code": "V5L 3W9", "country": "CA", "state": "BC", "display_address": ["1046 Commercial Drive", "Vancouver, BC V5L 3W9", "Canada"]}, "phone": "+16045595938", "display_phone": "+1 604-559-5938", "distance": 3641.247425454944}, {"id": "p5thThuUITUjAy8gS3sPMw", "alias": "fable-vancouver", "name": "Fable", "image_url": "https://s3-media3.fl.yelpcdn.com/bphoto/qfRjCaAKubhfyb42LKZ_TA/o.jpg", "is_closed": false, "url": "https://www.yelp.com/biz/fable-vancouver?adjust_creative=1ZZ0Ns_B8DEDC0FtVqeJeQ&utm_campaign=yelp_api_v3&utm_medium=api_v3_business_search&utm_source=1ZZ0Ns_B8DEDC0FtVqeJeQ", "review_count": 683, "categories": [{"alias": "newcanadian", "title": "Canadian (New)"}], "rating": 4.5, "coordinates": {"latitude": 49.2679331, "longitude": -123.149019}, "transactions": [], "price": "$$", "location": {"address1": "1944 W 4th Avenue", "address2": "", "address3": "", "city": "Vancouver", "zip_code": "V6J 1M5", "country": "CA", "state": "BC", "display_address": ["1944 W 4th Avenue", "Vancouver, BC V6J 1M5", "Canada"]}, "phone": "+16047321322", "display_phone": "+1 604-732-1322", "distance": 2435.1131842867535}, {"id": "fwFhsjAZ8mYZZcGuP-yEUA", "alias": "potluck-hawker-eatery-vancouver-5", "name": "Potluck Hawker Eatery", "image_url": "https://s3-media1.fl.yelpcdn.com/bphoto/WOpddC-W-ssIbp0xp6jIyw/o.jpg", "is_closed": false, "url": "https://www.yelp.com/biz/potluck-hawker-eatery-vancouver-5?adjust_creative=1ZZ0Ns_B8DEDC0FtVqeJeQ&utm_campaign=yelp_api_v3&utm_medium=api_v3_business_search&utm_source=1ZZ0Ns_B8DEDC0FtVqeJeQ", "review_count": 50, "categories": [{"alias": "indonesian", "title": "Indonesian"}, {"alias": "singaporean", "title": "Singaporean"}, {"alias": "malaysian", "title": "Malaysian"}], "rating": 3.5, "coordinates": {"latitude": 49.254602, "longitude": -123.1149019}, "transactions": [], "location": {"address1": "3424 Cambie Street", "address2": "", "address3": null, "city": "Vancouver", "zip_code": "V5Z 2W8", "country": "CA", "state": "BC", "display_address": ["3424 Cambie Street", "Vancouver, BC V5Z 2W8", "Canada"]}, "phone": "+16044239344", "display_phone": "+1 604-423-9344", "distance": 972.1473424649462}, {"id": "NensKn1MSVU_rm-1Y6WlFA", "alias": "marulilu-cafe-vancouver", "name": "Marulilu Cafe", "image_url": "https://s3-media2.fl.yelpcdn.com/bphoto/uwwarfUGQaB7hJYsr6YddQ/o.jpg", "is_closed": false, "url": "https://www.yelp.com/biz/marulilu-cafe-vancouver?adjust_creative=1ZZ0Ns_B8DEDC0FtVqeJeQ&utm_campaign=yelp_api_v3&utm_medium=api_v3_business_search&utm_source=1ZZ0Ns_B8DEDC0FtVqeJeQ", "review_count": 271, "categories": [{"alias": "cafes", "title": "Cafes"}], "rating": 4.0, "coordinates": {"latitude": 49.26338, "longitude": -123.11415}, "transactions": [], "price": "$$", "location": {"address1": "451 W Broadway", "address2": "", "address3": "", "city": "Vancouver", "zip_code": "V5Y 1R4", "country": "CA", "state": "BC", "display_address": ["451 W Broadway", "Vancouver, BC V5Y 1R4", "Canada"]}, "phone": "+16045684211", "display_phone": "+1 604-568-4211", "distance": 153.7894447561674}, {"id": "yodp8dWdtD22DFp75nFa9A", "alias": "yu-shang-hot-pot-vancouver", "name": "Yu Shang Hot Pot", "image_url": "https://s3-media2.fl.yelpcdn.com/bphoto/XTMuu_ZqnyQp8L9u2bPs4w/o.jpg", "is_closed": false, "url": "https://www.yelp.com/biz/yu-shang-hot-pot-vancouver?adjust_creative=1ZZ0Ns_B8DEDC0FtVqeJeQ&utm_campaign=yelp_api_v3&utm_medium=api_v3_business_search&utm_source=1ZZ0Ns_B8DEDC0FtVqeJeQ", "review_count": 55, "categories": [{"alias": "hotpot", "title": "Hot Pot"}], "rating": 4.5, "coordinates": {"latitude": 49.263149, "longitude": -123.125629}, "transactions": [], "location": {"address1": "202-950 W Broadway", "address2": "", "address3": "", "city": "Vancouver", "zip_code": "V5Z 1K7", "country": "CA", "state": "BC", "display_address": ["202-950 W Broadway", "Vancouver, BC V5Z 1K7", "Canada"]}, "phone": "+16045646686", "display_phone": "+1 604-564-6686", "distance": 682.4565068718532}, {"id": "4EV_ZcQmjAmP3pmO-_nb2A", "alias": "miku-vancouver-2", "name": "Miku", "image_url": "https://s3-media2.fl.yelpcdn.com/bphoto/B7I6zFE_Ryv_0UoD5Ia2nw/o.jpg", "is_closed": false, "url": "https://www.yelp.com/biz/miku-vancouver-2?adjust_creative=1ZZ0Ns_B8DEDC0FtVqeJeQ&utm_campaign=yelp_api_v3&utm_medium=api_v3_business_search&utm_source=1ZZ0Ns_B8DEDC0FtVqeJeQ", "review_count": 1812, "categories": [{"alias": "japanese", "title": "Japanese"}, {"alias": "sushi", "title": "Sushi Bars"}], "rating": 4.5, "coordinates": {"latitude": 49.2870083463066, "longitude": -123.113051358108}, "transactions": [], "price": "$$$", "location": {"address1": "200 Granville Street", "address2": "Suite 70", "address3": "", "city": "Vancouver", "zip_code": "V6C 1S4", "country": "CA", "state": "BC", "display_address": ["200 Granville Street", "Suite 70", "Vancouver, BC V6C 1S4", "Canada"]}, "phone": "+16045683900", "display_phone": "+1 604-568-3900", "distance": 2648.719549140943}, {"id": "tlf2fI5FOm8KUCgy73qhSQ", "alias": "holy-chow-vancouver", "name": "Holy Chow", "image_url": "https://s3-media1.fl.yelpcdn.com/bphoto/okBWHhabMZSm6cYFLdyH7w/o.jpg", "is_closed": false, "url": "https://www.yelp.com/biz/holy-chow-vancouver?adjust_creative=1ZZ0Ns_B8DEDC0FtVqeJeQ&utm_campaign=yelp_api_v3&utm_medium=api_v3_business_search&utm_source=1ZZ0Ns_B8DEDC0FtVqeJeQ", "review_count": 3, "categories": [{"alias": "asianfusion", "title": "Asian Fusion"}, {"alias": "dumplings", "title": "Dumplings"}], "rating": 4.5, "coordinates": {"latitude": 49.28317639999999, "longitude": -123.1122509}, "transactions": [], "location": {"address1": "433 W Pender Street", "address2": "", "address3": null, "city": "Vancouver", "zip_code": "V6B 1B2", "country": "CA", "state": "BC", "display_address": ["433 W Pender Street", "Vancouver, BC V6B 1B2", "Canada"]}, "phone": "+16043588098", "display_phone": "+1 604-358-8098", "distance": 2231.31117711176}, {"id": "Ufhxnrt_OJu4jHfVTP3aRQ", "alias": "fanny-bay-oyster-bar-and-shellfish-market-vancouver", "name": "Fanny Bay Oyster Bar & Shellfish Market", "image_url": "https://s3-media2.fl.yelpcdn.com/bphoto/9Ff-B-TKXF_BM8UMs_rtyA/o.jpg", "is_closed": false, "url": "https://www.yelp.com/biz/fanny-bay-oyster-bar-and-shellfish-market-vancouver?adjust_creative=1ZZ0Ns_B8DEDC0FtVqeJeQ&utm_campaign=yelp_api_v3&utm_medium=api_v3_business_search&utm_source=1ZZ0Ns_B8DEDC0FtVqeJeQ", "review_count": 575, "categories": [{"alias": "seafood", "title": "Seafood"}, {"alias": "seafoodmarkets", "title": "Seafood Markets"}], "rating": 4.5, "coordinates": {"latitude": 49.2787525, "longitude": -123.1138689}, "transactions": [], "price": "$$", "location": {"address1": "762 Cambie St", "address2": "", "address3": null, "city": "Vancouver", "zip_code": "V6B 2P2", "country": "CA", "state": "BC", "display_address": ["762 Cambie St", "Vancouver, BC V6B 2P2", "Canada"]}, "phone": "+17783799510", "display_phone": "+1 778-379-9510", "distance": 1711.527841072457}, {"id": "yeNenSjz_HCqngGFU5d8NQ", "alias": "phnom-penh-vancouver", "name": "Phnom Penh", "image_url": "https://s3-media3.fl.yelpcdn.com/bphoto/99vr4wSLFMHrt8YeRXaXPQ/o.jpg", "is_closed": false, "url": "https://www.yelp.com/biz/phnom-penh-vancouver?adjust_creative=1ZZ0Ns_B8DEDC0FtVqeJeQ&utm_campaign=yelp_api_v3&utm_medium=api_v3_business_search&utm_source=1ZZ0Ns_B8DEDC0FtVqeJeQ", "review_count": 1308, "categories": [{"alias": "cambodian", "title": "Cambodian"}, {"alias": "vietnamese", "title": "Vietnamese"}], "rating": 4.0, "coordinates": {"latitude": 49.278431, "longitude": -123.098205}, "transactions": [], "price": "$$", "location": {"address1": "244 E Georgia Street", "address2": "", "address3": "", "city": "Vancouver", "zip_code": "V6A 1Z7", "country": "CA", "state": "BC", "display_address": ["244 E Georgia Street", "Vancouver, BC V6A 1Z7", "Canada"]}, "phone": "+16046825777", "display_phone": "+1 604-682-5777", "distance": 2132.7250951450683}, {"id": "wHTXCWVsx2PYPT21JV-HeQ", "alias": "lupo-vancouver", "name": "Lupo", "image_url": "https://s3-media2.fl.yelpcdn.com/bphoto/v4PWKNJ_REK2R2D3oYh8Ag/o.jpg", "is_closed": false, "url": "https://www.yelp.com/biz/lupo-vancouver?adjust_creative=1ZZ0Ns_B8DEDC0FtVqeJeQ&utm_campaign=yelp_api_v3&utm_medium=api_v3_business_search&utm_source=1ZZ0Ns_B8DEDC0FtVqeJeQ", "review_count": 397, "categories": [{"alias": "italian", "title": "Italian"}], "rating": 4.5, "coordinates": {"latitude": 49.27823, "longitude": -123.1174}, "transactions": [], "price": "$$$", "location": {"address1": "869 Hamilton Street", "address2": "", "address3": "", "city": "Vancouver", "zip_code": "V6B 2R7", "country": "CA", "state": "BC", "display_address": ["869 Hamilton Street", "Vancouver, BC V6B 2R7", "Canada"]}, "phone": "+16045692535", "display_phone": "+1 604-569-2535", "distance": 1660.4638556190805}, {"id": "ecN9xzc80xkm9XOFNCUDmw", "alias": "tokyo-in-april-vancouver", "name": "Tokyo In April", "image_url": "https://s3-media3.fl.yelpcdn.com/bphoto/8P9l8Gq0aHucmuwSZ_dJ_A/o.jpg", "is_closed": false, "url": "https://www.yelp.com/biz/tokyo-in-april-vancouver?adjust_creative=1ZZ0Ns_B8DEDC0FtVqeJeQ&utm_campaign=yelp_api_v3&utm_medium=api_v3_business_search&utm_source=1ZZ0Ns_B8DEDC0FtVqeJeQ", "review_count": 8, "categories": [{"alias": "japanese", "title": "Japanese"}], "rating": 4.5, "coordinates": {"latitude": 49.2806813, "longitude": -123.1073936}, "transactions": [], "location": {"address1": "526 Abbott St", "address2": "", "address3": null, "city": "Vancouver", "zip_code": "V6B 2L1", "country": "CA", "state": "BC", "display_address": ["526 Abbott St", "Vancouver, BC V6B 2L1", "Canada"]}, "phone": "+16044232779", "display_phone": "+1 604-423-2779", "distance": 2012.6451598857536}, {"id": "AEOyRbQtYD3bmX1qJWvt4g", "alias": "peaceful-restaurant-vancouver", "name": "Peaceful Restaurant", "image_url": "https://s3-media2.fl.yelpcdn.com/bphoto/CEdKVbgadZV2Dyw71XGjAg/o.jpg", "is_closed": false, "url": "https://www.yelp.com/biz/peaceful-restaurant-vancouver?adjust_creative=1ZZ0Ns_B8DEDC0FtVqeJeQ&utm_campaign=yelp_api_v3&utm_medium=api_v3_business_search&utm_source=1ZZ0Ns_B8DEDC0FtVqeJeQ", "review_count": 578, "categories": [{"alias": "chinese", "title": "Chinese"}, {"alias": "noodles", "title": "Noodles"}], "rating": 3.5, "coordinates": {"latitude": 49.263147, "longitude": -123.116143}, "transactions": [], "price": "$$", "location": {"address1": "110-532 W Broadway", "address2": "", "address3": "", "city": "Vancouver", "zip_code": "V5Z 1E9", "country": "CA", "state": "BC", "display_address": ["110-532 W Broadway", "Vancouver, BC V5Z 1E9", "Canada"]}, "phone": "+16048799878", "display_phone": "+1 604-879-9878", "distance": 15.772340755351154}, {"id": "grCWGZwFspRjOjNc9N1yyA", "alias": "breka-bakery-and-caf\u00e9-vancouver-8", "name": "Breka Bakery & Caf\u00e9", "image_url": "https://s3-media3.fl.yelpcdn.com/bphoto/saul02zM5cVdTwrJ444hQQ/o.jpg", "is_closed": false, "url": "https://www.yelp.com/biz/breka-bakery-and-caf%C3%A9-vancouver-8?adjust_creative=1ZZ0Ns_B8DEDC0FtVqeJeQ&utm_campaign=yelp_api_v3&utm_medium=api_v3_business_search&utm_source=1ZZ0Ns_B8DEDC0FtVqeJeQ", "review_count": 2, "categories": [{"alias": "bakeries", "title": "Bakeries"}, {"alias": "cakeshop", "title": "Patisserie/Cake Shop"}, {"alias": "cafes", "title": "Cafes"}], "rating": 5.0, "coordinates": {"latitude": 49.24383730986246, "longitude": -123.10114614665508}, "transactions": [], "location": {"address1": "4554 Main St", "address2": "", "address3": null, "city": "Vancouver", "zip_code": "V5V 3R5", "country": "CA", "state": "BC", "display_address": ["4554 Main St", "Vancouver, BC V5V 3R5", "Canada"]}, "phone": "+16045590900", "display_phone": "+1 604-559-0900", "distance": 2422.9894767602527}, {"id": "RckRmOcX7OtMUDC40Cz3lg", "alias": "hello-nori-vancouver", "name": "Hello Nori", "image_url": "https://s3-media4.fl.yelpcdn.com/bphoto/0bzJoQiIzZQHnYMixkcDKw/o.jpg", "is_closed": false, "url": "https://www.yelp.com/biz/hello-nori-vancouver?adjust_creative=1ZZ0Ns_B8DEDC0FtVqeJeQ&utm_campaign=yelp_api_v3&utm_medium=api_v3_business_search&utm_source=1ZZ0Ns_B8DEDC0FtVqeJeQ", "review_count": 13, "categories": [{"alias": "japanese", "title": "Japanese"}, {"alias": "sushi", "title": "Sushi Bars"}], "rating": 4.5, "coordinates": {"latitude": 49.2857029, "longitude": -123.1262438}, "transactions": [], "location": {"address1": "1165 Robson Street", "address2": null, "address3": "", "city": "Vancouver", "zip_code": "V6E 1B5", "country": "CA", "state": "BC", "display_address": ["1165 Robson Street", "Vancouver, BC V6E 1B5", "Canada"]}, "phone": "+16045649595", "display_phone": "+1 604-564-9595", "distance": 2583.9394208848175}, {"id": "uAROEz8D29elXoNxjnPrkQ", "alias": "twisted-fork-vancouver", "name": "Twisted Fork", "image_url": "https://s3-media2.fl.yelpcdn.com/bphoto/5uA-JiwtoZy-qM77cIJjrw/o.jpg", "is_closed": false, "url": "https://www.yelp.com/biz/twisted-fork-vancouver?adjust_creative=1ZZ0Ns_B8DEDC0FtVqeJeQ&utm_campaign=yelp_api_v3&utm_medium=api_v3_business_search&utm_source=1ZZ0Ns_B8DEDC0FtVqeJeQ", "review_count": 1035, "categories": [{"alias": "french", "title": "French"}, {"alias": "breakfast_brunch", "title": "Breakfast & Brunch"}], "rating": 4.0, "coordinates": {"latitude": 49.283194, "longitude": -123.104445}, "transactions": [], "price": "$$", "location": {"address1": "213 Carral Street", "address2": "", "address3": "", "city": "Vancouver", "zip_code": "V6B 2J2", "country": "CA", "state": "BC", "display_address": ["213 Carral Street", "Vancouver, BC V6B 2J2", "Canada"]}, "phone": "+16045680749", "display_phone": "+1 604-568-0749", "distance": 2373.768869334373}, {"id": "y583PSvm5c6tZYmRiboYYA", "alias": "a-bento-vancouver", "name": "A.Bento", "image_url": "https://s3-media3.fl.yelpcdn.com/bphoto/up_x217nACNeFHkbKlUb6Q/o.jpg", "is_closed": false, "url": "https://www.yelp.com/biz/a-bento-vancouver?adjust_creative=1ZZ0Ns_B8DEDC0FtVqeJeQ&utm_campaign=yelp_api_v3&utm_medium=api_v3_business_search&utm_source=1ZZ0Ns_B8DEDC0FtVqeJeQ", "review_count": 4, "categories": [{"alias": "taiwanese", "title": "Taiwanese"}, {"alias": "chinese", "title": "Chinese"}, {"alias": "asianfusion", "title": "Asian Fusion"}], "rating": 4.0, "coordinates": {"latitude": 49.263164, "longitude": -123.118857}, "transactions": [], "location": {"address1": "656W Broadway", "address2": null, "address3": "", "city": "Vancouver", "zip_code": "V5Z 1G1", "country": "CA", "state": "BC", "display_address": ["656W Broadway", "Vancouver, BC V5Z 1G1", "Canada"]}, "phone": "", "display_phone": "", "distance": 191.3224888269208}, {"id": "K1nbiOrySlw_-XG-3NmErQ", "alias": "manousheh-vancouver-4", "name": "Manoush'eh", "image_url": "https://s3-media2.fl.yelpcdn.com/bphoto/WTlny_d00lwJzPHC6ceeVg/o.jpg", "is_closed": false, "url": "https://www.yelp.com/biz/manousheh-vancouver-4?adjust_creative=1ZZ0Ns_B8DEDC0FtVqeJeQ&utm_campaign=yelp_api_v3&utm_medium=api_v3_business_search&utm_source=1ZZ0Ns_B8DEDC0FtVqeJeQ", "review_count": 194, "categories": [{"alias": "mediterranean", "title": "Mediterranean"}], "rating": 5.0, "coordinates": {"latitude": 49.27667072314417, "longitude": -123.12570086148997}, "transactions": [], "price": "$", "location": {"address1": "620 Davie Street", "address2": "", "address3": null, "city": "Vancouver", "zip_code": "V6B 2G5", "country": "CA", "state": "BC", "display_address": ["620 Davie Street", "Vancouver, BC V6B 2G5", "Canada"]}, "phone": "+16044404402", "display_phone": "+1 604-440-4402", "distance": 1640.2014347505005}, {"id": "jyU8_T2QNmaBRdjaMpXGDA", "alias": "nook-vancouver-4", "name": "Nook", "image_url": "https://s3-media2.fl.yelpcdn.com/bphoto/iAj4JOpxi0jym5qa7o2_Eg/o.jpg", "is_closed": false, "url": "https://www.yelp.com/biz/nook-vancouver-4?adjust_creative=1ZZ0Ns_B8DEDC0FtVqeJeQ&utm_campaign=yelp_api_v3&utm_medium=api_v3_business_search&utm_source=1ZZ0Ns_B8DEDC0FtVqeJeQ", "review_count": 49, "categories": [{"alias": "pizza", "title": "Pizza"}, {"alias": "italian", "title": "Italian"}], "rating": 4.0, "coordinates": {"latitude": 49.269495877535, "longitude": -123.109226971865}, "transactions": [], "location": {"address1": "195 West 2nd Avenue", "address2": "", "address3": null, "city": "Vancouver", "zip_code": "V5Y 4A1", "country": "CA", "state": "BC", "display_address": ["195 West 2nd Avenue", "Vancouver, BC V5Y 4A1", "Canada"]}, "phone": "+16044286248", "display_phone": "+1 604-428-6248", "distance": 857.8710490561341}, {"id": "wyckj51AcHAY2pt43HA1EA", "alias": "unchai-thai-restaurant-vancouver", "name": "Unchai Thai Restaurant", "image_url": "https://s3-media3.fl.yelpcdn.com/bphoto/2EOddIfD4oLC_xVWDhVogw/o.jpg", "is_closed": false, "url": "https://www.yelp.com/biz/unchai-thai-restaurant-vancouver?adjust_creative=1ZZ0Ns_B8DEDC0FtVqeJeQ&utm_campaign=yelp_api_v3&utm_medium=api_v3_business_search&utm_source=1ZZ0Ns_B8DEDC0FtVqeJeQ", "review_count": 65, "categories": [{"alias": "thai", "title": "Thai"}], "rating": 4.5, "coordinates": {"latitude": 49.265112, "longitude": -123.145913}, "transactions": [], "location": {"address1": "2351 Burrard Street", "address2": "", "address3": null, "city": "Vancouver", "zip_code": "V6J 3J2", "country": "CA", "state": "BC", "display_address": ["2351 Burrard Street", "Vancouver, BC V6J 3J2", "Canada"]}, "phone": "+16045596484", "display_phone": "+1 604-559-6484", "distance": 2163.78325226683}, {"id": "l184Y1d3oAa5_Al4YIaRjQ", "alias": "anh-and-chi-vancouver", "name": "Anh and Chi", "image_url": "https://s3-media3.fl.yelpcdn.com/bphoto/M6loJKt1RPVbHyrS6PRhZQ/o.jpg", "is_closed": false, "url": "https://www.yelp.com/biz/anh-and-chi-vancouver?adjust_creative=1ZZ0Ns_B8DEDC0FtVqeJeQ&utm_campaign=yelp_api_v3&utm_medium=api_v3_business_search&utm_source=1ZZ0Ns_B8DEDC0FtVqeJeQ", "review_count": 474, "categories": [{"alias": "vietnamese", "title": "Vietnamese"}, {"alias": "cocktailbars", "title": "Cocktail Bars"}], "rating": 4.0, "coordinates": {"latitude": 49.2550314422938, "longitude": -123.100882202153}, "transactions": [], "price": "$$", "location": {"address1": "3388 Main Street", "address2": null, "address3": "", "city": "Vancouver", "zip_code": "V5V 3M7", "country": "CA", "state": "BC", "display_address": ["3388 Main Street", "Vancouver, BC V5V 3M7", "Canada"]}, "phone": "+16048788883", "display_phone": "+1 604-878-8883", "distance": 1442.4854753127547}, {"id": "0oGCF9xsvKe1vS6Sm3o3VQ", "alias": "kokoro-tokyo-mazesoba-vancouver-2", "name": "Kokoro Tokyo Mazesoba", "image_url": "https://s3-media1.fl.yelpcdn.com/bphoto/l26PNiD4Tntxh92qMsp84A/o.jpg", "is_closed": false, "url": "https://www.yelp.com/biz/kokoro-tokyo-mazesoba-vancouver-2?adjust_creative=1ZZ0Ns_B8DEDC0FtVqeJeQ&utm_campaign=yelp_api_v3&utm_medium=api_v3_business_search&utm_source=1ZZ0Ns_B8DEDC0FtVqeJeQ", "review_count": 346, "categories": [{"alias": "japanese", "title": "Japanese"}], "rating": 4.0, "coordinates": {"latitude": 49.2833927, "longitude": -123.115078}, "transactions": [], "price": "$$", "location": {"address1": "551 Seymour Street", "address2": null, "address3": "", "city": "Vancouver", "zip_code": "V6B 3H6", "country": "CA", "state": "BC", "display_address": ["551 Seymour Street", "Vancouver, BC V6B 3H6", "Canada"]}, "phone": "+16045598872", "display_phone": "+1 604-559-8872", "distance": 2240.8708312129743}, {"id": "GqophJdoCqSZRvgzKiU17Q", "alias": "the-peri-peri-shack-vancouver", "name": "The Peri Peri Shack", "image_url": "https://s3-media1.fl.yelpcdn.com/bphoto/TY4QClVcuWSyNJGzaeKKMQ/o.jpg", "is_closed": false, "url": "https://www.yelp.com/biz/the-peri-peri-shack-vancouver?adjust_creative=1ZZ0Ns_B8DEDC0FtVqeJeQ&utm_campaign=yelp_api_v3&utm_medium=api_v3_business_search&utm_source=1ZZ0Ns_B8DEDC0FtVqeJeQ", "review_count": 6, "categories": [{"alias": "chickenshop", "title": "Chicken Shop"}], "rating": 5.0, "coordinates": {"latitude": 49.25627292573432, "longitude": -123.08909775135942}, "transactions": [], "location": {"address1": "724 Kingsway", "address2": null, "address3": "", "city": "Vancouver", "zip_code": "V5V 3C1", "country": "CA", "state": "BC", "display_address": ["724 Kingsway", "Vancouver, BC V5V 3C1", "Canada"]}, "phone": "+16048751651", "display_phone": "+1 604-875-1651", "distance": 2102.2188602699116}, {"id": "GSg5v3ZJxmMPrlAXqat8tA", "alias": "le-crocodile-restaurant-vancouver", "name": "Le Crocodile Restaurant", "image_url": "https://s3-media3.fl.yelpcdn.com/bphoto/MurVN7JThjWBRSfScUb9rg/o.jpg", "is_closed": false, "url": "https://www.yelp.com/biz/le-crocodile-restaurant-vancouver?adjust_creative=1ZZ0Ns_B8DEDC0FtVqeJeQ&utm_campaign=yelp_api_v3&utm_medium=api_v3_business_search&utm_source=1ZZ0Ns_B8DEDC0FtVqeJeQ", "review_count": 386, "categories": [{"alias": "french", "title": "French"}], "rating": 4.5, "coordinates": {"latitude": 49.2822815356982, "longitude": -123.124911131657}, "transactions": [], "price": "$$$$", "location": {"address1": "909 Burrard Street", "address2": "", "address3": "", "city": "Vancouver", "zip_code": "V6Z 2N2", "country": "CA", "state": "BC", "display_address": ["909 Burrard Street", "Vancouver, BC V6Z 2N2", "Canada"]}, "phone": "+16046694298", "display_phone": "+1 604-669-4298", "distance": 2205.0315297000507}, {"id": "nkDZY5xqihF3XtZMzzfqqg", "alias": "hokkaido-ramen-santouka-vancouver-5", "name": "Hokkaido Ramen Santouka", "image_url": "https://s3-media2.fl.yelpcdn.com/bphoto/9Fe-Lqjx8cng9bBCB8MiKw/o.jpg", "is_closed": false, "url": "https://www.yelp.com/biz/hokkaido-ramen-santouka-vancouver-5?adjust_creative=1ZZ0Ns_B8DEDC0FtVqeJeQ&utm_campaign=yelp_api_v3&utm_medium=api_v3_business_search&utm_source=1ZZ0Ns_B8DEDC0FtVqeJeQ", "review_count": 205, "categories": [{"alias": "noodles", "title": "Noodles"}, {"alias": "ramen", "title": "Ramen"}, {"alias": "soup", "title": "Soup"}], "rating": 4.0, "coordinates": {"latitude": 49.263127, "longitude": -123.1168917}, "transactions": [], "price": "$$", "location": {"address1": "558 W Broadway", "address2": "", "address3": null, "city": "Vancouver", "zip_code": "V5Z 1E9", "country": "CA", "state": "BC", "display_address": ["558 W Broadway", "Vancouver, BC V5Z 1E9", "Canada"]}, "phone": "+16045651770", "display_phone": "+1 604-565-1770", "distance": 50.822267069302015}, {"id": "bJKqZi70hu8g_ctZAAxtJw", "alias": "yolks-vancouver", "name": "Yolks", "image_url": "https://s3-media2.fl.yelpcdn.com/bphoto/8tt3M3w9EdI015A9V-OzXA/o.jpg", "is_closed": false, "url": "https://www.yelp.com/biz/yolks-vancouver?adjust_creative=1ZZ0Ns_B8DEDC0FtVqeJeQ&utm_campaign=yelp_api_v3&utm_medium=api_v3_business_search&utm_source=1ZZ0Ns_B8DEDC0FtVqeJeQ", "review_count": 306, "categories": [{"alias": "coffee", "title": "Coffee & Tea"}, {"alias": "breakfast_brunch", "title": "Breakfast & Brunch"}], "rating": 3.5, "coordinates": {"latitude": 49.2631139, "longitude": -123.1163529}, "transactions": [], "price": "$$", "location": {"address1": "546 W Broadway", "address2": "", "address3": "", "city": "Vancouver", "zip_code": "V5Z 1E9", "country": "CA", "state": "BC", "display_address": ["546 W Broadway", "Vancouver, BC V5Z 1E9", "Canada"]}, "phone": "+16045599655", "display_phone": "+1 604-559-9655", "distance": 29.354770444070702}, {"id": "9p3p3TJqBkJn4wCq4u9Hcw", "alias": "happy-wood-bbq-house-vancouver", "name": "Happy Wood BBQ House", "image_url": "https://s3-media2.fl.yelpcdn.com/bphoto/vX2jxPD3lDumrqmPzoYJLw/o.jpg", "is_closed": false, "url": "https://www.yelp.com/biz/happy-wood-bbq-house-vancouver?adjust_creative=1ZZ0Ns_B8DEDC0FtVqeJeQ&utm_campaign=yelp_api_v3&utm_medium=api_v3_business_search&utm_source=1ZZ0Ns_B8DEDC0FtVqeJeQ", "review_count": 4, "categories": [{"alias": "bbq", "title": "Barbeque"}], "rating": 4.5, "coordinates": {"latitude": 49.2635741545027, "longitude": -123.125512754331}, "transactions": [], "location": {"address1": "967 West Broadway", "address2": "", "address3": null, "city": "Vancouver", "zip_code": "V5Z 1K3", "country": "CA", "state": "BC", "display_address": ["967 West Broadway", "Vancouver, BC V5Z 1K3", "Canada"]}, "phone": "+16045580888", "display_phone": "+1 604-558-0888", "distance": 674.6714146287562}, {"id": "vXTo69v2bGEyuBdT0X1hrw", "alias": "la-taqueria-pinche-taco-shop-vancouver-2", "name": "La Taqueria Pinche Taco Shop", "image_url": "https://s3-media3.fl.yelpcdn.com/bphoto/tevD3sS3_E-uiw9NEdmrOA/o.jpg", "is_closed": false, "url": "https://www.yelp.com/biz/la-taqueria-pinche-taco-shop-vancouver-2?adjust_creative=1ZZ0Ns_B8DEDC0FtVqeJeQ&utm_campaign=yelp_api_v3&utm_medium=api_v3_business_search&utm_source=1ZZ0Ns_B8DEDC0FtVqeJeQ", "review_count": 474, "categories": [{"alias": "mexican", "title": "Mexican"}, {"alias": "cocktailbars", "title": "Cocktail Bars"}], "rating": 4.5, "coordinates": {"latitude": 49.282912, "longitude": -123.110593}, "transactions": [], "price": "$$", "location": {"address1": "322 W Hastings Street", "address2": "", "address3": "", "city": "Vancouver", "zip_code": "V8B 1K6", "country": "CA", "state": "BC", "display_address": ["322 W Hastings Street", "Vancouver, BC V8B 1K6", "Canada"]}, "phone": "+16045684406", "display_phone": "+1 604-568-4406", "distance": 2221.116914177914}, {"id": "gdSAYWUI2MTgrk08r_OZSg", "alias": "heritage-asian-eatery-vancouver-4", "name": "Heritage Asian Eatery", "image_url": "https://s3-media2.fl.yelpcdn.com/bphoto/ZBV7wqBBmO19Mr1v--oYAg/o.jpg", "is_closed": false, "url": "https://www.yelp.com/biz/heritage-asian-eatery-vancouver-4?adjust_creative=1ZZ0Ns_B8DEDC0FtVqeJeQ&utm_campaign=yelp_api_v3&utm_medium=api_v3_business_search&utm_source=1ZZ0Ns_B8DEDC0FtVqeJeQ", "review_count": 70, "categories": [{"alias": "panasian", "title": "Pan Asian"}, {"alias": "chinese", "title": "Chinese"}], "rating": 3.5, "coordinates": {"latitude": 49.26287, "longitude": -123.11247}, "transactions": [], "price": "$$", "location": {"address1": "382 W Broadway", "address2": "", "address3": null, "city": "Vancouver", "zip_code": "V5Y 1R2", "country": "CA", "state": "BC", "display_address": ["382 W Broadway", "Vancouver, BC V5Y 1R2", "Canada"]}, "phone": "+16045596058", "display_phone": "+1 604-559-6058", "distance": 280.55540440954496}, {"id": "f_mAWEZB39O15zEArtuyaw", "alias": "ophelia-vancouver", "name": "Ophelia", "image_url": "https://s3-media3.fl.yelpcdn.com/bphoto/yJu1Na0n0ebumVjR0wllxg/o.jpg", "is_closed": false, "url": "https://www.yelp.com/biz/ophelia-vancouver?adjust_creative=1ZZ0Ns_B8DEDC0FtVqeJeQ&utm_campaign=yelp_api_v3&utm_medium=api_v3_business_search&utm_source=1ZZ0Ns_B8DEDC0FtVqeJeQ", "review_count": 17, "categories": [{"alias": "mexican", "title": "Mexican"}], "rating": 3.5, "coordinates": {"latitude": 49.2694549, "longitude": -123.1083881}, "transactions": [], "location": {"address1": "165 W 2nd Avenue", "address2": "", "address3": null, "city": "Vancouver", "zip_code": "V5Y 1B8", "country": "CA", "state": "BC", "display_address": ["165 W 2nd Avenue", "Vancouver, BC V5Y 1B8", "Canada"]}, "phone": "+16048005253", "display_phone": "+1 604-800-5253", "distance": 906.7662152802344}, {"id": "ForB55b3mE5EEhC25sHMnQ", "alias": "mazahr-lebanese-kitchen-vancouver-3", "name": "Mazahr Lebanese Kitchen", "image_url": "https://s3-media2.fl.yelpcdn.com/bphoto/L8dXcbK9U86ehyrM_cY-QQ/o.jpg", "is_closed": false, "url": "https://www.yelp.com/biz/mazahr-lebanese-kitchen-vancouver-3?adjust_creative=1ZZ0Ns_B8DEDC0FtVqeJeQ&utm_campaign=yelp_api_v3&utm_medium=api_v3_business_search&utm_source=1ZZ0Ns_B8DEDC0FtVqeJeQ", "review_count": 14, "categories": [{"alias": "lebanese", "title": "Lebanese"}], "rating": 4.5, "coordinates": {"latitude": 49.2615511, "longitude": -123.1383052}, "transactions": [], "location": {"address1": "1488 West 11th Avenue", "address2": null, "address3": "", "city": "Vancouver", "zip_code": "V6H 1H1", "country": "CA", "state": "BC", "display_address": ["1488 West 11th Avenue", "Vancouver, BC V6H 1H1", "Canada"]}, "phone": "+16047332211", "display_phone": "+1 604-733-2211", "distance": 1599.8590117453064}, {"id": "LWhFS-ED-14fWtlkeGrz8Q", "alias": "donky-chicken-vancouver", "name": "Donky Chicken", "image_url": "https://s3-media1.fl.yelpcdn.com/bphoto/QF-FrDkyP_pnqY61LTV_Pg/o.jpg", "is_closed": false, "url": "https://www.yelp.com/biz/donky-chicken-vancouver?adjust_creative=1ZZ0Ns_B8DEDC0FtVqeJeQ&utm_campaign=yelp_api_v3&utm_medium=api_v3_business_search&utm_source=1ZZ0Ns_B8DEDC0FtVqeJeQ", "review_count": 4, "categories": [{"alias": "chickenshop", "title": "Chicken Shop"}, {"alias": "korean", "title": "Korean"}], "rating": 4.5, "coordinates": {"latitude": 49.2629406, "longitude": -123.0973575}, "transactions": [], "location": {"address1": "363 East Broadway", "address2": "", "address3": null, "city": "Vancouver", "zip_code": "V5T 1W5", "country": "CA", "state": "BC", "display_address": ["363 East Broadway", "Vancouver, BC V5T 1W5", "Canada"]}, "phone": "", "display_phone": "", "distance": 1357.7392605827042}, {"id": "GvaZyy_5B_QjnaEqZV2Z6Q", "alias": "smoke-and-bones-north-vancouver", "name": "Smoke and Bones", "image_url": "https://s3-media2.fl.yelpcdn.com/bphoto/ORauY2v-_qioJDCQI8pfFA/o.jpg", "is_closed": false, "url": "https://www.yelp.com/biz/smoke-and-bones-north-vancouver?adjust_creative=1ZZ0Ns_B8DEDC0FtVqeJeQ&utm_campaign=yelp_api_v3&utm_medium=api_v3_business_search&utm_source=1ZZ0Ns_B8DEDC0FtVqeJeQ", "review_count": 117, "categories": [{"alias": "bbq", "title": "Barbeque"}, {"alias": "burgers", "title": "Burgers"}, {"alias": "tradamerican", "title": "American (Traditional)"}], "rating": 4.0, "coordinates": {"latitude": 49.323648, "longitude": -123.1020458}, "transactions": [], "price": "$$$", "location": {"address1": "999 Marine Drive", "address2": "", "address3": "", "city": "North Vancouver", "zip_code": "V7P 1S4", "country": "CA", "state": "BC", "display_address": ["999 Marine Drive", "North Vancouver, BC V7P 1S4", "Canada"]}, "phone": "+16047701394", "display_phone": "+1 604-770-1394", "distance": 6784.337820399426}, {"id": "I1SNUgD8dfKyXwA38Nzoiw", "alias": "shiok-singapore-cuisine-vancouver", "name": "Shiok Singapore Cuisine", "image_url": "https://s3-media4.fl.yelpcdn.com/bphoto/zgwcJVuWxF6D2aKPjdvloA/o.jpg", "is_closed": false, "url": "https://www.yelp.com/biz/shiok-singapore-cuisine-vancouver?adjust_creative=1ZZ0Ns_B8DEDC0FtVqeJeQ&utm_campaign=yelp_api_v3&utm_medium=api_v3_business_search&utm_source=1ZZ0Ns_B8DEDC0FtVqeJeQ", "review_count": 76, "categories": [{"alias": "singaporean", "title": "Singaporean"}], "rating": 4.0, "coordinates": {"latitude": 49.2469321, "longitude": -123.0693059}, "transactions": [], "location": {"address1": "1716 Kingsway", "address2": "", "address3": null, "city": "Vancouver", "zip_code": "V5N 2S4", "country": "CA", "state": "BC", "display_address": ["1716 Kingsway", "Vancouver, BC V5N 2S4", "Canada"]}, "phone": "+16044233838", "display_phone": "+1 604-423-3838", "distance": 3846.948021365757}, {"id": "9k97YeY5BAr76bI5N1HKJA", "alias": "merci-beaucoup-cafe-vancouver", "name": "Merci Beaucoup Cafe", "image_url": "https://s3-media2.fl.yelpcdn.com/bphoto/YtGdEibpGFkLret6V8vpsw/o.jpg", "is_closed": false, "url": "https://www.yelp.com/biz/merci-beaucoup-cafe-vancouver?adjust_creative=1ZZ0Ns_B8DEDC0FtVqeJeQ&utm_campaign=yelp_api_v3&utm_medium=api_v3_business_search&utm_source=1ZZ0Ns_B8DEDC0FtVqeJeQ", "review_count": 8, "categories": [{"alias": "vietnamese", "title": "Vietnamese"}], "rating": 4.0, "coordinates": {"latitude": 49.2714944, "longitude": -123.0694551}, "transactions": [], "location": {"address1": "1468 Commercial Drive", "address2": null, "address3": "", "city": "Vancouver", "zip_code": "V5L 3X9", "country": "CA", "state": "BC", "display_address": ["1468 Commercial Drive", "Vancouver, BC V5L 3X9", "Canada"]}, "phone": "+16042553220", "display_phone": "+1 604-255-3220", "distance": 3515.9050161289065}, {"id": "BrA7s4_ZQMRmaeong_iu6A", "alias": "seiza-vancouver", "name": "Seiza", "image_url": "https://s3-media4.fl.yelpcdn.com/bphoto/ycfozcG0RgG-eNcmtZs0vA/o.jpg", "is_closed": false, "url": "https://www.yelp.com/biz/seiza-vancouver?adjust_creative=1ZZ0Ns_B8DEDC0FtVqeJeQ&utm_campaign=yelp_api_v3&utm_medium=api_v3_business_search&utm_source=1ZZ0Ns_B8DEDC0FtVqeJeQ", "review_count": 39, "categories": [{"alias": "japanese", "title": "Japanese"}, {"alias": "sushi", "title": "Sushi Bars"}], "rating": 4.0, "coordinates": {"latitude": 49.2578770366267, "longitude": -123.100880943239}, "transactions": ["restaurant_reservation"], "location": {"address1": "3068 Main Street", "address2": "", "address3": null, "city": "Vancouver", "zip_code": "V5T 3G5", "country": "CA", "state": "BC", "display_address": ["3068 Main Street", "Vancouver, BC V5T 3G5", "Canada"]}, "phone": "+16044285700", "display_phone": "+1 604-428-5700", "distance": 1265.19664244513}, {"id": "t-soDjOlN6XkySHBdhRkKA", "alias": "forage-vancouver", "name": "Forage", "image_url": "https://s3-media1.fl.yelpcdn.com/bphoto/Yu1XdGH3Q_gUJLc9jPScZg/o.jpg", "is_closed": false, "url": "https://www.yelp.com/biz/forage-vancouver?adjust_creative=1ZZ0Ns_B8DEDC0FtVqeJeQ&utm_campaign=yelp_api_v3&utm_medium=api_v3_business_search&utm_source=1ZZ0Ns_B8DEDC0FtVqeJeQ", "review_count": 642, "categories": [{"alias": "newcanadian", "title": "Canadian (New)"}, {"alias": "breakfast_brunch", "title": "Breakfast & Brunch"}], "rating": 4.0, "coordinates": {"latitude": 49.28707, "longitude": -123.12925}, "transactions": [], "price": "$$", "location": {"address1": "1300 Robson Street", "address2": null, "address3": "", "city": "Vancouver", "zip_code": "V6E 1C5", "country": "CA", "state": "BC", "display_address": ["1300 Robson Street", "Vancouver, BC V6E 1C5", "Canada"]}, "phone": "+16046611400", "display_phone": "+1 604-661-1400", "distance": 2803.019808058999}, {"id": "htvl5L_V-zKN0UvUgP60PQ", "alias": "robba-da-matti-vancouver", "name": "Robba da Matti", "image_url": "https://s3-media1.fl.yelpcdn.com/bphoto/phe1zmQjcRwweQLA-chclw/o.jpg", "is_closed": false, "url": "https://www.yelp.com/biz/robba-da-matti-vancouver?adjust_creative=1ZZ0Ns_B8DEDC0FtVqeJeQ&utm_campaign=yelp_api_v3&utm_medium=api_v3_business_search&utm_source=1ZZ0Ns_B8DEDC0FtVqeJeQ", "review_count": 433, "categories": [{"alias": "italian", "title": "Italian"}, {"alias": "tapas", "title": "Tapas Bars"}], "rating": 4.0, "coordinates": {"latitude": 49.2753397, "longitude": -123.1208967}, "transactions": [], "price": "$$", "location": {"address1": "1127 Mainland Street", "address2": "", "address3": "", "city": "Vancouver", "zip_code": "V6B 5P2", "country": "CA", "state": "BC", "display_address": ["1127 Mainland Street", "Vancouver, BC V6B 5P2", "Canada"]}, "phone": "+16045581174", "display_phone": "+1 604-558-1174", "distance": 1383.341070598963}, {"id": "RQRRllOVx1hYJ3yYhiqQlQ", "alias": "hawkers-delight-deli-vancouver", "name": "Hawkers Delight Deli", "image_url": "https://s3-media2.fl.yelpcdn.com/bphoto/t5eosTOr_okVbURuyeJS4A/o.jpg", "is_closed": false, "url": "https://www.yelp.com/biz/hawkers-delight-deli-vancouver?adjust_creative=1ZZ0Ns_B8DEDC0FtVqeJeQ&utm_campaign=yelp_api_v3&utm_medium=api_v3_business_search&utm_source=1ZZ0Ns_B8DEDC0FtVqeJeQ", "review_count": 334, "categories": [{"alias": "delis", "title": "Delis"}, {"alias": "malaysian", "title": "Malaysian"}, {"alias": "singaporean", "title": "Singaporean"}], "rating": 4.0, "coordinates": {"latitude": 49.248375, "longitude": -123.101287}, "transactions": [], "price": "$", "location": {"address1": "4127 Main Street", "address2": "", "address3": "", "city": "Vancouver", "zip_code": "V5V 3P6", "country": "CA", "state": "BC", "display_address": ["4127 Main Street", "Vancouver, BC V5V 3P6", "Canada"]}, "phone": "+16047098188", "display_phone": "+1 604-709-8188", "distance": 1980.3104346421078}], "total": 4400, "region": {"center": {"longitude": -123.11622619628906, "latitude": 49.26327804232932}}}